City_ID,City,Country,Max Temp,Current Description,Lat,Lng,Hotel Name
0,Victoria,HK,71.65,overcast clouds,22.2855,114.1577,
1,Vestmannaeyjar,IS,49.19,overcast clouds,63.4427,-20.2734,
2,Deogarh,IN,85.37,broken clouds,21.5333,84.7333,
3,Leh,IN,50.81,broken clouds,34.1667,77.5833,
5,Coihaique,CL,45.21,clear sky,-45.5752,-72.0662,
6,Albany,US,78.03,broken clouds,42.6001,-73.9662,
7,Cape Town,ZA,64.35,clear sky,-33.9258,18.4232,
8,Lompoc,US,71.92,broken clouds,34.6391,-120.4579,
9,Solano,US,80.33,clear sky,38.2333,-121.9511,
10,Mataura,NZ,35.47,few clouds,-46.1927,168.8643,
11,Urucui,BR,93.31,overcast clouds,-7.2294,-44.5561,
13,Mar Del Plata,AR,52.95,overcast clouds,-38.0023,-57.5575,
16,Ushuaia,AR,46.06,few clouds,-54.8,-68.3,
17,Punta Arenas,CL,44.71,clear sky,-53.15,-70.9167,
18,Yellowknife,CA,46.56,overcast clouds,62.456,-114.3525,
19,Kaeo,NZ,61.99,overcast clouds,-35.1,173.7833,
20,Jamestown,US,78.53,broken clouds,42.097,-79.2353,
21,Rio Gallegos,AR,51.85,clear sky,-51.6226,-69.2181,
22,Mikkeli,FI,46.51,light intensity shower rain,61.6886,27.2723,
23,Andover,GB,64.49,overcast clouds,51.2083,-1.4825,
24,Port Alfred,ZA,63.18,scattered clouds,-33.5906,26.891,
25,Codrington,AU,48.22,scattered clouds,-38.2667,141.9667,
26,Loralai,PK,78.6,clear sky,30.3705,68.598,
28,Torbay,CA,40.26,overcast clouds,47.6666,-52.7314,
29,Tondano,ID,69.89,overcast clouds,1.3038,124.9112,
30,Kavieng,PG,81.05,overcast clouds,-2.5744,150.7967,
31,Semey,KZ,61.14,broken clouds,50.4111,80.2275,
32,Narsaq,GL,46.62,scattered clouds,60.9167,-46.05,
33,Muros,ES,67.15,overcast clouds,42.7762,-9.0603,
35,Avarua,CK,68.05,broken clouds,-21.2078,-159.775,
36,Melilla,ES,73.78,few clouds,35.2937,-2.9383,
38,Havoysund,NO,41.23,overcast clouds,70.9963,24.6622,
39,Amahai,ID,78.44,broken clouds,-3.3333,128.9167,
40,Nantucket,US,68.14,overcast clouds,41.2835,-70.0995,
41,Marsh Harbour,BS,78.82,clear sky,26.5412,-77.0636,
42,Brae,GB,54.21,overcast clouds,60.3964,-1.353,
43,Delicias,ES,84.87,few clouds,41.6493,-0.9076,
44,Hermanus,ZA,62.8,clear sky,-34.4187,19.2345,
45,Annau,TM,76.91,clear sky,37.8876,58.516,
46,Yukhnov,RU,48.22,light rain,54.7444,35.2297,
47,Bontang,ID,81.99,scattered clouds,0.1333,117.5,
48,Letpadan,MM,84.88,broken clouds,17.7833,95.75,
49,Lagoa,PT,57.65,light rain,39.05,-27.9833,
51,Najran,SA,80.53,clear sky,17.4924,44.1277,
52,Saint-Michel-Des-Saints,CA,70.93,overcast clouds,46.6834,-73.9159,
53,Nikolskoye,RU,51.87,broken clouds,59.7035,30.7861,
54,Rikitea,PF,77.09,overcast clouds,-23.1203,-134.9692,
55,Carnarvon,AU,68.85,clear sky,-24.8667,113.6333,
57,Esperance,AU,51.64,overcast clouds,-33.8667,121.9,
58,Airai,TL,60.4,broken clouds,-8.9266,125.4092,
59,Grand Forks,US,65.93,few clouds,47.9417,-97.4337,
60,Iquique,CL,62.64,few clouds,-20.2208,-70.1431,
61,Katsuura,JP,63.34,light rain,35.1333,140.3,
62,Sur,OM,84.74,clear sky,22.5667,59.5289,
63,New Norfolk,AU,50.92,broken clouds,-42.7826,147.0587,
64,Chuy,UY,61.74,overcast clouds,-33.6971,-53.4616,
65,Kautokeino,NO,35.38,overcast clouds,69.0125,23.0412,
66,Skala,PL,65.86,clear sky,50.2305,19.8536,
67,Annaberg-Buchholz,DE,67.69,clear sky,50.5795,13.0063,
68,Skjervoy,NO,41.0,overcast clouds,70.0311,20.9714,
70,Hobart,AU,51.26,scattered clouds,-42.8794,147.3294,
72,Ponta Do Sol,PT,74.03,broken clouds,32.6667,-17.1,
73,Busselton,AU,53.49,broken clouds,-33.65,115.3333,
74,Arraial Do Cabo,BR,78.66,broken clouds,-22.9661,-42.0278,
75,Saint-Philippe,RE,72.99,scattered clouds,-21.3585,55.7679,
76,Kahului,US,76.84,few clouds,20.8947,-156.47,
77,Hithadhoo,MV,83.73,overcast clouds,-0.6,73.0833,
78,Trincomalee,LK,82.65,overcast clouds,8.5711,81.2335,
79,East London,ZA,65.14,clear sky,-33.0153,27.9116,
80,Mattru,SL,87.51,overcast clouds,7.6244,-11.8332,
81,Norman Wells,CA,35.64,broken clouds,65.282,-126.8329,
82,Bluff,NZ,35.8,few clouds,-46.6,168.3333,
83,Bambanglipuro,ID,78.96,broken clouds,-7.95,110.2833,
85,Nichinan,JP,56.64,overcast clouds,31.6,131.3667,
86,Atuona,PF,78.04,light rain,-9.8,-139.0333,
87,Wamba,NG,92.55,broken clouds,8.9333,8.6,
89,Cidreira,BR,64.89,overcast clouds,-30.1811,-50.2056,
90,Dakar,SN,85.08,clear sky,14.6937,-17.4441,
91,Cuenca,EC,56.64,light rain,-2.8833,-78.9833,
92,Bredasdorp,ZA,56.91,clear sky,-34.5322,20.0403,
93,Broken Hill,AU,56.39,clear sky,-31.95,141.4333,
94,Vaini,TO,68.16,few clouds,-21.2,-175.2,
95,Puerto Ayora,EC,84.16,broken clouds,-0.7393,-90.3518,
96,Kirakira,SB,77.9,overcast clouds,-10.4544,161.9205,
97,Tuburan,PH,81.27,overcast clouds,6.6439,122.2736,
98,Kirillov,RU,48.29,overcast clouds,59.863,38.3813,
99,Saint-Pierre,RE,71.91,clear sky,-21.3393,55.4781,
100,Harindanga,IN,86.02,broken clouds,22.0383,88.3214,
101,Georgetown,MY,82.33,few clouds,5.4112,100.3354,
102,Oistins,BB,84.29,broken clouds,13.0667,-59.5333,
103,Avera,US,83.37,overcast clouds,33.194,-82.5271,
104,Lithakia,GR,74.48,few clouds,37.7167,20.8333,
105,Finschhafen,PG,80.55,heavy intensity rain,-6.6024,147.8681,
106,Raha,IN,78.08,overcast clouds,26.2333,92.5167,
107,Rovaniemi,FI,47.61,overcast clouds,66.5,25.7167,
108,Constitucion,CL,64.17,broken clouds,-35.3333,-72.4167,
110,Rawson,AR,53.83,few clouds,-43.3002,-65.1023,
111,Lima,PE,62.85,overcast clouds,-12.0432,-77.0282,
112,Salvador,SV,88.05,broken clouds,13.8333,-88.9167,
114,Lebu,CL,57.51,overcast clouds,-37.6167,-73.65,
115,Port Macquarie,AU,65.89,overcast clouds,-31.4333,152.9167,
116,Tsogni,GA,78.26,light rain,-2.7942,10.0988,
117,Camana,PE,69.76,scattered clouds,-16.6228,-72.7111,
118,Bukama,CD,74.71,clear sky,-9.2,25.85,
120,Kruisfontein,ZA,63.88,clear sky,-34.0033,24.7314,
121,Girne,CY,69.35,clear sky,35.3417,33.3167,
122,Nabire,ID,75.85,overcast clouds,-3.3667,135.4833,
123,Russell,US,86.97,broken clouds,32.3502,-85.1999,
124,Alofi,NU,62.49,overcast clouds,-19.0595,-169.9187,
125,Bethel,US,77.43,broken clouds,41.3712,-73.414,
126,Kushmurun,KZ,56.3,light rain,52.4503,64.6311,
127,Grindavik,IS,55.35,overcast clouds,63.8424,-22.4338,
129,Cao Bang,VN,65.1,overcast clouds,22.6667,106.25,
130,Camacha,PT,71.02,clear sky,33.0833,-16.3333,
131,Half Moon Bay,US,70.88,fog,37.4636,-122.4286,
132,Alice Springs,AU,60.35,broken clouds,-23.7,133.8833,
134,Kloulklubed,PW,73.9,few clouds,7.0419,134.2556,
136,Tambun,ID,78.69,overcast clouds,-6.2641,107.0712,
137,Surok,RU,47.89,overcast clouds,56.4469,48.1214,
138,Harper,LR,82.65,light rain,4.375,-7.7169,
139,Margherita,IN,72.45,overcast clouds,27.2833,95.6833,
140,Ilebo,CD,80.74,broken clouds,-4.3167,20.5833,
141,Butaritari,KI,80.55,light rain,3.0707,172.7902,
142,Severo-Kurilsk,RU,36.88,moderate rain,50.6789,156.125,
143,Nenjiang,CN,42.17,broken clouds,49.1833,125.2167,
145,Tarkwa,GH,84.36,light rain,5.3064,-1.9847,
146,Mackay,AU,67.68,clear sky,-21.15,149.2,
147,Ligaya,PH,78.89,light rain,12.6599,120.8923,
148,Kavaratti,IN,80.51,overcast clouds,10.5669,72.642,
149,Lucapa,AO,74.1,scattered clouds,-8.4192,20.7447,
150,Takoradi,GH,83.26,scattered clouds,4.8845,-1.7554,
151,Honiara,SB,76.68,scattered clouds,-9.4333,159.95,
152,Meulaboh,ID,75.63,overcast clouds,4.1363,96.1285,
153,Awjilah,LY,83.53,clear sky,29.1081,21.2869,
154,Maholi,IN,94.84,clear sky,27.6667,80.4667,
155,Awbari,LY,84.43,clear sky,26.5921,12.7805,
156,Bengkulu,ID,77.45,overcast clouds,-3.8004,102.2655,
157,Jinchang,CN,52.75,clear sky,38.4953,102.1739,
158,Jalu,LY,83.57,clear sky,29.0331,21.5482,
159,Dorado,PR,88.47,broken clouds,18.4588,-66.2677,
160,Kandrian,PG,77.22,broken clouds,-6.2167,149.55,
161,Konya,TR,51.28,overcast clouds,38.1667,32.5,
163,Puerto Narino,CO,73.72,moderate rain,-3.7703,-70.3831,
164,Sao Lourenco,BR,63.77,overcast clouds,-22.1164,-45.0544,
165,Berehove,UA,64.99,few clouds,48.2056,22.6442,
166,Hamilton,US,84.22,clear sky,39.1834,-84.5333,
167,Vredendal,ZA,70.65,clear sky,-31.6683,18.5012,
169,Venado Tuerto,AR,62.76,clear sky,-33.7456,-61.9688,
170,Jumla,NP,55.58,scattered clouds,29.2747,82.1838,
171,Mae Hong Son,TH,77.68,scattered clouds,19.3003,97.9685,
172,Abu Kamal,SY,93.81,broken clouds,34.4506,40.9171,
173,Maceio,BR,83.64,broken clouds,-9.6658,-35.7353,
174,Vardo,NO,39.18,broken clouds,70.3705,31.1107,
175,Faanui,PF,80.29,few clouds,-16.4833,-151.75,
176,Baleshwar,IN,86.86,broken clouds,21.4942,86.9317,
177,Hasaki,JP,59.29,light rain,35.7333,140.8333,
178,Moscow,RU,55.83,light rain,55.7522,37.6156,
179,Taltal,CL,63.7,few clouds,-25.4,-70.4833,
180,Kapaa,US,75.52,broken clouds,22.0752,-159.319,
181,Port Elizabeth,ZA,66.09,clear sky,-33.918,25.5701,
182,Tacoronte,ES,70.12,clear sky,28.4769,-16.4102,
183,Bubaque,GW,79.88,overcast clouds,11.2833,-15.8333,
184,Sayyan,YE,68.34,clear sky,15.1718,44.3244,
185,Pisco,PE,64.45,mist,-13.7,-76.2167,
186,Balabagan,PH,77.77,overcast clouds,7.5264,124.1142,
187,Sao Filipe,CV,79.21,broken clouds,14.8961,-24.4956,
188,Wassenberg,DE,80.4,overcast clouds,51.1,6.15,
189,Chimbote,PE,68.7,scattered clouds,-9.0853,-78.5783,
190,Santa Helena De Goias,BR,86.52,few clouds,-17.8136,-50.5969,
191,Buluang,PH,77.95,overcast clouds,13.3068,123.3425,
192,Berlevag,NO,39.2,overcast clouds,70.8578,29.0864,
194,Gorontalo,ID,77.41,broken clouds,0.5412,123.0595,
195,Bandarbeyla,SO,82.69,clear sky,9.4942,50.8122,
196,Beringovskiy,RU,38.1,overcast clouds,63.05,179.3167,
197,Husavik,IS,52.12,overcast clouds,66.0449,-17.3389,
198,Port Maria,JM,88.05,overcast clouds,18.3685,-76.8895,
199,Canyon,US,89.04,clear sky,34.9803,-101.9188,
200,Hobyo,SO,81.66,light rain,5.3505,48.5268,
201,Hornepayne,CA,63.25,few clouds,49.2138,-84.7705,
202,Waregem,BE,81.37,broken clouds,50.8811,3.4026,
203,Derzhavinsk,KZ,59.59,overcast clouds,51.1,66.3167,
204,Sawakin,SD,89.64,clear sky,19.1059,37.3321,
205,Gat,IL,69.82,clear sky,31.61,34.7642,
206,Hambantota,LK,80.04,overcast clouds,6.1241,81.1185,
209,Oswego,US,80.53,broken clouds,43.4501,-76.1497,
210,Ransang,PH,79.43,broken clouds,8.9603,117.5828,
211,Presidencia Roque Saenz Pena,AR,69.75,clear sky,-26.7852,-60.4388,
212,Souillac,MU,73.78,light rain,-20.5167,57.5167,
213,Ulaangom,MN,59.05,broken clouds,49.9811,92.0667,
214,Cabo San Lucas,MX,92.5,clear sky,22.8909,-109.9124,
215,Bereda,ES,70.41,overcast clouds,43.2686,-7.5406,
216,Bambous Virieux,MU,73.65,light rain,-20.3428,57.7575,
217,Rocha,UY,60.33,overcast clouds,-34.4833,-54.3333,
218,Klaksvik,FO,50.92,overcast clouds,62.2266,-6.589,
219,Provideniya,RU,35.19,broken clouds,64.3833,-173.3,
220,Ampanihy,MG,68.86,clear sky,-24.7,44.75,
221,Murray Bridge,AU,58.12,scattered clouds,-35.1167,139.2667,
222,Kholmogory,RU,56.71,overcast clouds,64.2229,41.656,
223,Bathsheba,BB,84.81,broken clouds,13.2167,-59.5167,
224,Oda,JP,54.32,overcast clouds,35.1833,132.5,
225,Paita,PE,71.24,overcast clouds,-5.0892,-81.1144,
226,Coquimbo,CL,56.93,overcast clouds,-29.9533,-71.3436,
227,Hilo,US,75.27,light rain,19.7297,-155.09,
228,Tezu,IN,71.35,overcast clouds,27.9167,96.1667,
229,Doha,QA,85.98,clear sky,25.2867,51.5333,
231,Sobolevo,RU,48.54,broken clouds,54.4299,31.8996,
232,Varhaug,NO,57.85,overcast clouds,58.6147,5.6457,
233,Dingle,PH,77.45,overcast clouds,10.9995,122.6711,
234,San Patricio,US,90.07,clear sky,28.017,-97.5169,
236,Ozinki,RU,51.57,broken clouds,51.1786,49.6769,
237,Xiaoshan,CN,61.84,clear sky,30.1675,120.2588,
238,Coleraine,GB,64.31,broken clouds,55.1333,-6.6667,
239,Ferme-Neuve,CA,72.45,moderate rain,46.7001,-75.4493,
240,Nakhon Si Thammarat,TH,78.06,overcast clouds,8.25,100.0,
241,Durban,ZA,69.03,clear sky,-29.8579,31.0292,
242,Moron,AR,59.95,clear sky,-34.6534,-58.6198,
243,Marienburg,PL,60.87,few clouds,54.0359,19.0266,
244,Xining,CN,37.72,broken clouds,36.6167,101.7667,
245,Carlsbad,US,93.56,clear sky,33.1581,-117.3506,
246,Haines Junction,CA,40.95,overcast clouds,60.7522,-137.5108,
247,Pochutla,MX,91.81,scattered clouds,15.7432,-96.4661,
248,Kenora,CA,49.17,overcast clouds,49.8167,-94.4337,
249,Haapiti,PF,76.73,moderate rain,-17.5667,-149.8667,
250,Karpogory,RU,55.65,scattered clouds,64.0019,44.4451,
251,Ritchie,ZA,56.41,clear sky,-29.038,24.6028,
252,Namibe,AO,72.66,clear sky,-15.1961,12.1522,
254,Whitehorse,CA,41.09,few clouds,60.7161,-135.0538,
255,Hami,CN,70.92,scattered clouds,42.8,93.45,
256,Copiapo,CL,58.69,clear sky,-27.3667,-70.3333,
257,Denpasar,ID,80.26,few clouds,-8.65,115.2167,
258,Bahia Blanca,AR,55.11,broken clouds,-38.7196,-62.2724,
259,Lenger,KZ,63.84,clear sky,42.183,69.8839,
260,Santa Maria,BR,57.29,overcast clouds,-29.6842,-53.8069,
261,Barranca,PE,67.37,broken clouds,-10.75,-77.7667,
262,Sault Sainte Marie,CA,70.09,clear sky,46.5168,-84.3333,
264,Sorland,NO,42.66,overcast clouds,67.667,12.6934,
265,Qostanay,KZ,59.29,broken clouds,53.1667,63.5833,
266,Tonantins,BR,79.48,moderate rain,-2.8731,-67.8022,
267,Vanderhoof,CA,50.23,overcast clouds,54.0166,-124.0198,
268,Valparaiso,CL,61.03,mist,-33.0393,-71.6273,
269,Sitka,US,46.29,overcast clouds,57.0531,-135.33,
270,Gemunden,DE,76.59,overcast clouds,50.05,9.7,
272,Znamenskoye,RU,55.15,broken clouds,57.1281,73.8282,
273,Kendari,ID,77.52,broken clouds,-3.945,122.4989,
274,Bridgend,GB,61.0,overcast clouds,51.5058,-3.5772,
275,Yarmouth,US,75.67,scattered clouds,41.7057,-70.2286,
276,Daru,PG,76.77,clear sky,-9.0763,143.2092,
277,Kaitangata,NZ,41.86,few clouds,-46.2817,169.8464,
278,Mikuni,JP,51.71,overcast clouds,36.2171,136.1519,
279,Kapoeta,SS,87.15,overcast clouds,4.7717,33.5903,
280,Cockburn Town,TC,79.25,broken clouds,21.4612,-71.1419,
281,Goderich,CA,64.72,broken clouds,43.7501,-81.7165,
282,San Cristobal,VE,84.38,overcast clouds,7.7669,-72.225,
283,Castro,BR,58.46,overcast clouds,-24.7911,-50.0119,
284,Great Yarmouth,GB,62.46,overcast clouds,52.6083,1.7305,
285,Lahij,YE,85.23,clear sky,13.1667,44.5833,
286,Ahuimanu,US,76.35,scattered clouds,21.4447,-157.8378,
287,Grand Gaube,MU,73.8,few clouds,-20.0064,57.6608,
288,Imeni Poliny Osipenko,RU,36.03,light rain,52.4201,136.4853,
289,Bilgi,IN,84.45,overcast clouds,16.35,75.6167,
290,Caravelas,BR,79.93,broken clouds,-17.7125,-39.2481,
291,Saint George,US,85.78,clear sky,37.1041,-113.5841,
292,Cravo Norte,CO,91.98,overcast clouds,6.3017,-70.2041,
293,Ismailia,EG,69.69,clear sky,30.6043,32.2723,
295,Saint-Augustin,CA,45.86,broken clouds,51.226,-58.6502,
296,Nelson Bay,AU,66.0,scattered clouds,-32.7167,152.15,
297,Guerrero Negro,MX,72.0,scattered clouds,27.9769,-114.0611,
298,Kodiak,US,49.51,clear sky,57.79,-152.4072,
300,Gwanda,ZW,67.68,broken clouds,-20.9333,29.0,
301,Firovo,RU,48.4,overcast clouds,57.4814,33.7021,
303,Alta Floresta,BR,94.82,scattered clouds,-9.8756,-56.0861,
304,Mabaruma,GY,75.85,overcast clouds,8.2,-59.7833,
305,Humaita,BR,89.8,overcast clouds,-7.5061,-63.0208,
306,Homer,US,47.77,clear sky,59.6425,-151.5483,
307,Yaan,NG,88.72,overcast clouds,7.3833,8.5667,
308,Uong Bi,VN,69.78,overcast clouds,21.0333,106.7833,
309,Kannur,IN,79.3,moderate rain,11.8675,75.3576,
310,Portland,US,65.75,overcast clouds,45.5234,-122.6762,
311,Porangatu,BR,93.2,scattered clouds,-13.4408,-49.1486,
312,Cherkasskoye,RU,48.99,overcast clouds,52.4333,47.2167,
313,Urubicha,BO,81.37,scattered clouds,-15.3833,-62.95,
314,Quarai,BR,62.83,few clouds,-30.3875,-56.4514,
315,Crib Point,AU,58.64,broken clouds,-38.35,145.2,
316,Touros,BR,85.05,overcast clouds,-5.1989,-35.4608,
317,Puerto Baquerizo Moreno,EC,79.79,scattered clouds,-0.9,-89.6,
318,Mao,ES,73.96,clear sky,39.8885,4.2658,
319,Yatou,CN,52.43,few clouds,37.15,122.3833,
320,Mount Gambier,AU,54.05,scattered clouds,-37.8333,140.7667,
321,Conde,BR,83.66,broken clouds,-7.2597,-34.9075,
322,Korla,CN,74.89,overcast clouds,41.7597,86.1469,
323,Albina,SR,80.53,overcast clouds,5.5,-54.05,
324,Quatre Cocos,MU,73.51,scattered clouds,-20.2078,57.7625,
325,Salina,US,75.02,broken clouds,38.8403,-97.6114,
327,Kota Kinabalu,MY,79.88,few clouds,5.9749,116.0724,
328,Igrim,RU,46.94,broken clouds,63.1906,64.4162,
329,Laguna,US,84.02,clear sky,38.421,-121.4238,
330,Hofn,IS,47.26,overcast clouds,64.2539,-15.2082,
331,Veraval,IN,83.79,clear sky,20.9,70.3667,
332,Itarema,BR,83.79,overcast clouds,-2.9248,-39.9167,
333,Kijang,KR,56.93,overcast clouds,35.2442,129.2139,
335,Tulln,AT,77.04,few clouds,48.3283,16.0586,
337,Vila Franca Do Campo,PT,68.2,overcast clouds,37.7167,-25.4333,
338,San Jeronimo,PE,62.53,scattered clouds,-11.9472,-75.2829,
339,College,US,46.2,broken clouds,64.8569,-147.8028,
340,Hurricane,US,91.74,scattered clouds,37.1753,-113.2899,
341,Salalah,OM,86.09,clear sky,17.0151,54.0924,
342,Kuressaare,EE,52.95,clear sky,58.2481,22.5039,
343,Bam,IR,75.85,clear sky,29.106,58.357,
344,Antofagasta,CL,63.68,few clouds,-23.65,-70.4,
345,Dolores,AR,57.11,clear sky,-36.3132,-57.6792,
346,Epe,NG,84.9,overcast clouds,6.5841,3.9834,
347,Nakhon Thai,TH,80.49,broken clouds,17.1006,100.8374,
349,Ugoofaaru,MV,83.32,overcast clouds,5.6667,73.0,
350,Ngorongoro,TZ,52.7,scattered clouds,-3.2397,35.4875,
351,Kieta,PG,79.18,overcast clouds,-6.2167,155.6333,
352,Mineiros,BR,85.5,scattered clouds,-17.5694,-52.5511,
354,Togur,RU,56.64,overcast clouds,58.3631,82.8265,
355,Tautira,PF,80.06,light rain,-17.7333,-149.15,
356,Kashi,CN,63.61,overcast clouds,39.4547,75.9797,
357,Garissa,KE,84.0,broken clouds,-0.4536,39.6401,
358,Vorukh,TJ,56.79,broken clouds,39.8494,70.5838,
359,Trairi,BR,83.71,overcast clouds,-3.2778,-39.2689,
360,Longkou,CN,58.15,clear sky,37.6508,120.3286,
361,Lorengau,PG,79.32,overcast clouds,-2.0226,147.2712,
362,Bastia,FR,71.4,clear sky,42.6667,9.3333,
363,Teknaf,BD,82.42,scattered clouds,20.8624,92.3058,
364,Santiago De Cuba,CU,82.51,broken clouds,20.0247,-75.8219,
365,Newport,GB,60.82,overcast clouds,51.5877,-2.9984,
366,Prieska,ZA,64.17,clear sky,-29.6641,22.7474,
367,Bud,US,84.67,few clouds,39.447,-86.1758,
368,Bintulu,MY,77.41,thunderstorm with light rain,3.1667,113.0333,
369,Faya,SA,75.31,clear sky,18.3851,42.4509,
371,Chalus,IR,63.86,clear sky,36.655,51.4204,
372,Kigoma,TZ,76.15,scattered clouds,-4.8769,29.6267,
373,Kailua,US,76.64,broken clouds,21.4022,-157.7394,
374,Rancho Palos Verdes,US,82.51,broken clouds,33.7445,-118.387,
377,Mahebourg,MU,73.69,scattered clouds,-20.4081,57.7,
378,Ribeira Grande,PT,61.2,light rain,38.5167,-28.7,
379,Sioux Lookout,CA,48.27,overcast clouds,50.1001,-91.917,
380,Chapais,CA,64.18,overcast clouds,49.7834,-74.8492,
381,Russkaya Polyana,UA,55.69,broken clouds,49.417,31.9201,
382,Fort Nelson,CA,47.79,scattered clouds,58.8053,-122.7002,
383,Neiba,DO,82.98,broken clouds,18.5,-71.4167,
384,Christchurch,NZ,51.94,overcast clouds,-43.5333,172.6333,
385,Luba,GQ,82.4,broken clouds,3.4568,8.5547,
386,Dabakala,CI,91.26,light rain,8.3667,-4.4333,
387,Slatina,RO,73.71,few clouds,44.4333,24.3667,
388,Leopold,AU,53.65,broken clouds,-38.1833,144.4667,
389,Nemuro,JP,43.25,clear sky,43.3236,145.575,
390,Bergama,TR,70.18,few clouds,39.1207,27.1805,
391,Saldus,LV,50.38,scattered clouds,56.6636,22.4881,
392,Kindu,CD,80.22,overcast clouds,-2.95,25.95,
393,Turka,UA,55.15,broken clouds,49.1541,23.0297,
394,Marzuq,YE,79.05,clear sky,14.4,46.4667,
395,Mitsamiouli,KM,80.87,light rain,-11.3847,43.2844,
396,Comodoro Rivadavia,AR,53.46,clear sky,-45.8667,-67.5,
397,Santa Engracia,ES,84.81,broken clouds,41.9406,-1.3245,
398,Maldonado,UY,58.39,broken clouds,-34.6667,-54.9167,
399,Baneh,IR,62.6,scattered clouds,35.9975,45.8853,
400,Umm Lajj,SA,87.31,clear sky,25.0213,37.2685,
401,Wilmington,US,84.97,few clouds,34.2257,-77.9447,
402,Kasempa,ZM,61.29,few clouds,-13.4584,25.8338,
403,Gaya,IN,93.11,haze,24.7833,85.0,
404,Vanavara,RU,52.52,broken clouds,60.34,102.2797,
405,Byron Bay,AU,70.72,few clouds,-28.65,153.6167,
406,Gold Coast,AU,72.0,clear sky,-28.0,153.4333,
407,Ostrovnoy,RU,37.18,broken clouds,68.0531,39.5131,
408,Valle Nacional,MX,92.48,few clouds,17.7833,-96.3167,
409,Bonthe,SL,85.44,overcast clouds,7.5264,-12.505,
410,Hope,US,87.98,few clouds,33.6671,-93.5916,
411,Petilia Policastro,IT,73.29,few clouds,39.1139,16.7855,
412,Dali,CN,59.11,broken clouds,25.7,100.1833,
413,Yulara,AU,58.05,clear sky,-25.2406,130.9889,
414,Namie,JP,53.71,overcast clouds,37.4833,141.0,
415,Constantine,DZ,83.61,scattered clouds,36.365,6.6147,
416,Ambovombe,MG,70.93,clear sky,-25.1667,46.0833,
417,Ust-Ishim,RU,56.34,overcast clouds,57.6935,71.1665,
418,Cotacachi,EC,69.35,light rain,0.3,-78.2667,
420,Bahia Honda,CU,84.06,few clouds,22.9036,-83.1592,
421,Buraydah,SA,91.85,clear sky,26.326,43.975,
422,Vung Tau,VN,84.24,broken clouds,10.346,107.0843,
423,Sao Joao Da Barra,BR,80.69,scattered clouds,-21.6403,-41.0511,
424,Luanda,AO,77.56,clear sky,-8.8368,13.2343,
425,Ialibu,PG,55.65,overcast clouds,-6.2821,143.9935,
426,Canavieiras,BR,75.16,overcast clouds,-15.675,-38.9472,
427,Sedalia,US,62.51,overcast clouds,38.7045,-93.2283,
428,Havre-Saint-Pierre,CA,44.96,clear sky,50.2334,-63.5986,
429,Matara,LK,78.62,overcast clouds,5.9485,80.5353,
430,Victor Harbor,AU,57.0,light rain,-35.5667,138.6167,
432,Petropavlovsk-Kamchatskiy,RU,36.19,light intensity shower rain,53.0452,158.6483,
434,Stavern,NO,65.32,scattered clouds,59.0,10.0333,
435,Ulaanbaatar,MN,35.73,clear sky,47.9077,106.8832,
436,Luganville,VU,77.49,overcast clouds,-15.5333,167.1667,
437,Karla,EE,49.96,clear sky,59.3723,24.9275,
438,Olafsvik,IS,46.71,overcast clouds,64.8945,-23.7142,
439,Senanga,ZM,69.84,scattered clouds,-16.1167,23.2667,
440,Morant Bay,JM,88.72,overcast clouds,17.8815,-76.4093,
441,Fukue,JP,61.68,overcast clouds,32.6881,128.8419,
442,Talnakh,RU,36.73,overcast clouds,69.4865,88.3972,
443,Quang Ngai,VN,76.71,overcast clouds,15.1167,108.8,
445,Port Augusta,AU,55.67,clear sky,-32.5,137.7667,
446,Anchorage,US,45.55,clear sky,61.2181,-149.9003,
447,Mount Pleasant,US,87.98,few clouds,32.7941,-79.8626,
448,Kollam,IN,78.53,moderate rain,8.8833,76.6,
450,Asosa,ET,63.72,overcast clouds,10.0667,34.5333,
451,Labuan,MY,80.96,few clouds,5.2767,115.2417,
452,Escanaba,US,68.97,few clouds,45.7453,-87.0646,
453,Lata,PT,71.89,overcast clouds,40.1629,-8.3327,
454,Kuliyapitiya,LK,78.48,broken clouds,7.4688,80.0401,
455,Mehtar Lam,AF,81.61,few clouds,34.6714,70.2094,
456,Pietersburg,ZA,59.85,clear sky,-23.9045,29.4688,
457,Promyshlennyy,RU,46.38,overcast clouds,67.5833,63.9167,
458,Bisira,PA,69.64,broken clouds,8.5196,-81.7115,
460,Saldanha,ZA,60.85,clear sky,-33.0117,17.9442,
461,Semiluki,RU,52.25,clear sky,51.6853,39.0279,
462,Kencong,ID,77.49,broken clouds,-8.2833,113.3667,
463,Olot,ES,81.54,clear sky,42.181,2.4901,
464,Vaitape,PF,80.33,few clouds,-16.5167,-151.75,
465,Turkmenabat,TM,75.18,clear sky,39.0733,63.5786,
467,Sydney,AU,60.39,few clouds,-33.8679,151.2073,
468,Malanje,AO,70.11,few clouds,-9.5402,16.341,
469,Kokkola,FI,51.96,clear sky,63.8385,23.1307,
471,Mitu,CO,84.11,overcast clouds,1.1983,-70.1733,
472,Sao Felix Do Xingu,BR,84.94,overcast clouds,-6.6447,-51.995,
473,Oktyabrskiy,RU,52.63,light rain,54.4815,53.471,
474,Little Chute,US,72.52,scattered clouds,44.28,-88.3184,
475,Fortuna,US,63.93,broken clouds,40.5982,-124.1573,
476,Nouadhibou,MR,80.58,sand,20.931,-17.0347,
477,Kununurra,AU,71.58,clear sky,-15.7667,128.7333,
478,Nacala,MZ,72.52,few clouds,-14.5428,40.6728,
479,Port Hawkesbury,CA,63.9,overcast clouds,45.6169,-61.3485,
481,Asau,RO,67.12,overcast clouds,46.4333,26.4,
482,Rapid City,US,67.08,clear sky,44.0805,-103.231,
483,Glarus,CH,76.46,overcast clouds,47.0406,9.068,
484,Kawalu,ID,73.94,scattered clouds,-7.3817,108.2082,
485,Kade,DE,66.97,clear sky,52.3833,12.2667,
486,Shimoda,JP,58.1,light rain,34.6667,138.95,
487,Winslow,US,75.38,clear sky,35.0242,-110.6974,
488,Horki,BY,49.53,scattered clouds,54.2861,30.9842,
489,Yenagoa,NG,81.9,moderate rain,4.9247,6.2642,
490,Jibuti,DJ,89.55,clear sky,11.5,42.5,
491,Ancud,CL,53.42,broken clouds,-41.8697,-73.8203,
492,Vila,PT,55.71,overcast clouds,42.0304,-8.1588,
493,Tilaran,CR,84.22,overcast clouds,10.4703,-84.9671,
494,Valdivia,CL,46.49,broken clouds,-39.8142,-73.2459,
495,Catia La Mar,VE,94.98,scattered clouds,10.6038,-67.0303,
496,Tamiahua,MX,84.76,overcast clouds,21.2667,-97.45,
497,Boa Vista,BR,87.78,light rain,2.8197,-60.6733,
498,Shache,CN,67.23,overcast clouds,38.4167,77.2406,
499,Baghdad,IQ,89.51,clear sky,33.3406,44.4009,
500,Roebourne,AU,76.08,clear sky,-20.7833,117.1333,
501,Hirado,JP,56.39,overcast clouds,33.3597,129.5531,
502,Pahrump,US,87.85,scattered clouds,36.2083,-115.9839,
503,Puerto Carreno,CO,91.49,overcast clouds,6.189,-67.4859,
504,Port Blair,IN,80.64,mist,11.6667,92.75,
505,Yantai,CN,56.71,clear sky,37.5333,121.4,
506,Aykhal,RU,35.89,overcast clouds,66.0,111.5,
507,Puerto El Triunfo,SV,91.42,broken clouds,13.2833,-88.55,
508,Manitouwadge,CA,60.01,few clouds,49.1215,-85.8403,
509,Evanston,US,78.35,overcast clouds,42.0411,-87.6901,
510,La Ronge,CA,41.25,overcast clouds,55.1001,-105.2842,
511,Puerto Leguizamo,CO,80.15,overcast clouds,-0.1934,-74.7819,
512,Williston,US,64.81,clear sky,48.147,-103.618,
513,Istisu,AZ,56.07,clear sky,40.9457,48.0738,
514,Praia,CV,88.34,clear sky,14.9215,-23.5087,
515,Griffith,US,80.1,clear sky,41.5284,-87.4237,
516,San Francisco De Macoris,DO,86.68,overcast clouds,19.2952,-70.2554,
517,Khokhryaki,RU,55.06,broken clouds,56.9156,53.3221,
518,Port Lincoln,AU,59.32,broken clouds,-34.7333,135.8667,
519,Port-Gentil,GA,84.16,scattered clouds,-0.7193,8.7815,
520,Mayo,US,80.13,overcast clouds,38.8876,-76.5119,
521,Canton,CN,68.88,overcast clouds,23.1167,113.25,
522,Turinskaya Sloboda,RU,51.89,light rain,57.6232,64.3858,
523,Rongcheng,CN,60.28,overcast clouds,30.634,117.8517,
524,Olinda,BR,83.93,scattered clouds,-8.0089,-34.8553,
525,Odweyne,SO,84.61,few clouds,9.4092,45.064,
526,Kampot,KH,86.05,light rain,10.6167,104.1833,
527,Aleksandrovskiy Zavod,RU,42.75,scattered clouds,50.9237,117.9374,
528,Orlik,RU,47.28,overcast clouds,52.5178,99.825,
529,Bom Jesus Da Lapa,BR,92.1,overcast clouds,-13.255,-43.4181,
530,Ponta Pora,BR,60.71,overcast clouds,-22.5361,-55.7256,
531,Mount Isa,AU,62.37,clear sky,-20.7333,139.5,
532,Qixingtai,CN,58.39,broken clouds,30.4135,111.8874,
533,Tigil,RU,39.02,overcast clouds,57.8,158.6667,
534,Dongsheng,CN,51.35,clear sky,39.8161,109.9776,
535,Progreso,MX,87.91,clear sky,21.2833,-89.6667,
536,Salina Cruz,MX,94.93,scattered clouds,16.1667,-95.2,
537,Koumac,NC,72.45,broken clouds,-20.5667,164.2833,
538,Wenchi,GH,89.47,overcast clouds,7.7392,-2.1046,
539,Grinnell,US,69.66,broken clouds,41.743,-92.7224,
540,Naze,JP,59.92,moderate rain,28.3667,129.4833,
541,Lac Du Bonnet,CA,44.06,overcast clouds,50.2536,-96.0612,
542,Yei,SS,69.82,light rain,4.095,30.6779,
543,Tabou,CI,82.63,overcast clouds,4.423,-7.3528,
544,Kodinsk,RU,53.6,scattered clouds,58.6881,99.1844,
545,Luoyang,CN,61.74,clear sky,34.6836,112.4536,
546,Ketchikan,US,46.38,moderate rain,55.3422,-131.6461,
547,Fare,PF,79.52,scattered clouds,-16.7,-151.0167,
548,Geraldton,AU,54.01,clear sky,-28.7667,114.6,
551,Zaysan,KZ,61.36,overcast clouds,47.4667,84.8667,
552,Amuntai,ID,75.0,scattered clouds,-2.4177,115.2494,
553,Tukrah,LY,68.85,clear sky,32.5341,20.5791,
554,Tigre,AR,59.27,clear sky,-34.426,-58.5796,
556,Fonte Boa,BR,79.88,moderate rain,-2.4959,-66.2662,
557,Abalak,RU,54.54,light rain,58.1286,68.5944,
558,Huarmey,PE,68.79,scattered clouds,-10.0681,-78.1522,
559,Anloga,GH,83.93,broken clouds,5.7947,0.8973,
561,Tual,ID,82.17,light rain,-5.6667,132.75,
562,Saint-Joseph,RE,70.18,few clouds,-21.3667,55.6167,
563,Andra,RU,51.33,broken clouds,62.5147,65.8878,
564,Kuching,MY,79.02,few clouds,1.55,110.3333,
565,Nishihara,JP,67.28,overcast clouds,26.1842,127.7558,
566,Hilton Head Island,US,87.1,scattered clouds,32.2163,-80.7526,
567,Magadan,RU,38.53,overcast clouds,59.5667,150.8,
568,Maningrida,AU,74.97,clear sky,-12.0667,134.2667,
569,Shakiso,ET,59.05,light rain,5.75,38.9167,
570,Gariaband,IN,89.91,overcast clouds,20.635,82.0614,
571,Yar-Sale,RU,38.62,overcast clouds,66.8333,70.8333,
572,Kommunar,RU,52.52,broken clouds,59.6206,30.39,
573,Kimbe,PG,76.44,broken clouds,-5.5502,150.1429,
574,Iranshahr,IR,88.14,clear sky,27.2025,60.6848,
575,Saint-Paul,RE,73.49,light rain,-21.0096,55.2707,
576,Candolim,IN,84.2,broken clouds,15.5181,73.7626,
577,Vanimo,PG,79.47,overcast clouds,-2.6741,141.3028,
578,Tarakan,ID,81.82,moderate rain,3.3,117.6333,
579,Yumen,CN,54.19,scattered clouds,40.2833,97.2,
580,Kamaishi,JP,48.65,overcast clouds,39.2667,141.8833,
581,Lazaro Cardenas,MX,86.86,broken clouds,17.9583,-102.2,
582,Karasjok,NO,37.08,overcast clouds,69.4719,25.5112,
583,Ahipara,NZ,64.45,overcast clouds,-35.1667,173.1667,
584,Jizan,SA,88.74,clear sky,17.3333,42.6667,
585,Les Cayes,HT,83.68,overcast clouds,18.2,-73.75,
586,Skibbereen,IE,57.11,overcast clouds,51.55,-9.2667,
587,Shwebo,MM,82.29,light rain,22.5667,95.7,
588,Cap Malheureux,MU,72.46,few clouds,-19.9842,57.6142,
589,Ewa Beach,US,76.59,scattered clouds,21.3156,-158.0072,
591,Spornoye,RU,47.71,scattered clouds,50.8448,37.2913,
592,Flin Flon,CA,39.04,overcast clouds,54.7682,-101.865,
593,Winneba,GH,81.91,scattered clouds,5.3511,-0.6231,
594,Vila Velha,BR,78.75,broken clouds,-20.3297,-40.2925,
595,Poum,NC,76.08,scattered clouds,-20.2333,164.0167,
596,Sept-Iles,CA,51.06,broken clouds,50.2001,-66.3821,
597,Mortka,RU,49.26,light rain,59.3322,66.0214,
600,Honningsvag,NO,40.75,broken clouds,70.9821,25.9704,
601,Emba,KZ,62.02,scattered clouds,48.8264,58.1442,
603,Saint-Marc,HT,83.84,overcast clouds,19.1082,-72.6938,
604,Gangtok,IN,62.11,overcast clouds,27.3333,88.6167,
605,Ouadda,CF,74.21,broken clouds,8.0777,22.4007,
606,Beloha,MG,68.67,clear sky,-25.1667,45.05,
607,Ypsonas,CY,67.05,few clouds,34.6884,32.9574,
608,Cam Ranh,VN,80.56,few clouds,11.9214,109.1591,
609,Innisfail,AU,68.77,scattered clouds,-17.5333,146.0333,
610,Gravelbourg,CA,61.07,clear sky,49.8834,-106.5512,
611,Hereford,GB,62.2,overcast clouds,52.0568,-2.7148,
612,Belmonte,BR,75.9,overcast clouds,-15.8631,-38.8828,
614,Nalut,LY,82.4,clear sky,30.3333,10.85,
615,Gouyave,GD,84.97,few clouds,12.1646,-61.7296,
616,Calamar,CO,90.21,overcast clouds,10.2511,-74.9146,
617,Murgab,TM,73.27,clear sky,37.4966,61.9714,
618,Tura,IN,72.63,broken clouds,25.5198,90.2201,
619,Ajaccio,FR,66.25,clear sky,42.0,8.9167,
620,Cabedelo,BR,84.87,overcast clouds,-6.9811,-34.8339,
621,Kuala Lipis,MY,74.43,overcast clouds,4.1842,102.0468,
622,Niksar,TR,57.58,overcast clouds,40.5917,36.9517,
623,Port Moresby,PG,74.98,scattered clouds,-9.4431,147.1797,
624,Winnemucca,US,71.65,clear sky,40.973,-117.7357,
625,Viedma,AR,55.6,overcast clouds,-40.8135,-62.9967,
626,Sao Geraldo Do Araguaia,BR,80.91,light rain,-6.4006,-48.555,
627,Doka,SD,91.94,scattered clouds,13.5167,35.7667,
629,San Vicente,AR,63.84,broken clouds,-26.6167,-54.1333,
630,Anadyr,RU,36.1,clear sky,64.75,177.4833,
631,Kachug,RU,50.58,broken clouds,53.9606,105.8817,
632,Matamoros,MX,86.11,clear sky,25.5333,-103.25,
633,San Francisco Del Mar,MX,92.37,scattered clouds,16.2333,-94.65,
634,Bayan,CN,44.51,few clouds,46.0833,127.4,
635,Mount Darwin,ZW,59.95,clear sky,-16.7725,31.5838,
636,Bruchsal,DE,80.37,scattered clouds,49.1281,8.5836,
637,Terney,RU,44.02,broken clouds,45.0503,136.6092,
638,Chontalpa,MX,94.8,few clouds,17.7,-93.5167,
639,Nizwa,OM,84.49,clear sky,22.9333,57.5333,
640,Prince Rupert,CA,47.89,light rain,54.3161,-130.3201,
641,Freeport,US,78.31,scattered clouds,40.6576,-73.5832,
642,Nagai,JP,45.84,overcast clouds,38.1036,140.035,
643,Tankhoy,RU,48.81,few clouds,51.5528,105.1306,
644,Arman,RU,39.02,overcast clouds,59.7,150.1667,
645,Ballina,AU,70.79,few clouds,-28.8667,153.5667,
646,Tomatlan,MX,94.37,scattered clouds,19.9333,-105.25,
647,Grafton,US,76.15,light rain,42.207,-71.6856,
648,Katherine,AU,64.72,clear sky,-14.4667,132.2667,
649,Tobermory,CA,42.4,overcast clouds,45.2501,-81.6665,
650,Puli,TW,65.21,moderate rain,23.9664,120.9695,
651,Mehamn,NO,39.11,broken clouds,71.0357,27.8492,
652,Abu Dhabi,AE,82.51,clear sky,24.4667,54.3667,
653,Floro,NO,51.87,scattered clouds,61.5996,5.0328,
654,Fujin,CN,42.71,scattered clouds,47.26,132.0322,
655,Nyrob,RU,45.66,scattered clouds,60.733,56.7202,
656,Lae,PG,76.33,overcast clouds,-6.7221,146.9847,
657,Corn Island,NI,82.49,overcast clouds,12.1694,-83.0418,
658,Manta,EC,82.18,overcast clouds,-0.95,-80.7333,
659,Polyarnyy,RU,46.69,few clouds,69.1989,33.4478,
660,Kampong Thum,KH,80.58,moderate rain,12.7111,104.8887,
661,Kenai,US,50.02,clear sky,60.5544,-151.2583,
662,West Wendover,US,67.21,clear sky,40.7391,-114.0733,
663,Hervey Bay,AU,71.02,broken clouds,-25.2986,152.8535,
664,Flinders,AU,59.05,clear sky,-34.5833,150.8552,
665,Kasungu,MW,61.34,few clouds,-13.0333,33.4833,
666,Dunda,TZ,68.97,broken clouds,-8.1167,34.25,
667,Horsham,GB,65.95,clear sky,51.064,-0.3272,
668,Los Llanos De Aridane,ES,69.55,few clouds,28.6585,-17.9182,
669,General Roca,AR,59.63,clear sky,-39.0333,-67.5833,
670,Port Lavaca,US,91.31,scattered clouds,28.615,-96.6261,
671,Sukhobezvodnoye,RU,45.03,scattered clouds,57.0491,44.8891,
672,Sakaiminato,JP,55.38,broken clouds,35.55,133.2333,
673,Porterville,US,87.75,clear sky,36.0652,-119.0168,
675,Roald,NO,52.72,clear sky,62.5833,6.1333,
676,Ilo,PE,67.48,scattered clouds,-17.6394,-71.3375,
677,Chipiona,ES,75.38,few clouds,36.7366,-6.437,
678,Mangrol,IN,83.53,clear sky,21.1167,70.1167,
679,Ambon,ID,75.34,scattered clouds,-3.6954,128.1814,
680,Banda Aceh,ID,81.75,broken clouds,5.5577,95.3222,
682,Isangel,VU,74.57,scattered clouds,-19.55,169.2667,
683,Alihe,CN,35.8,broken clouds,50.5667,123.7167,
684,Baijiantan,CN,69.85,moderate rain,45.6333,85.1833,
685,Caldwell,US,73.44,clear sky,43.6629,-116.6874,
686,Sarangani,PH,80.42,overcast clouds,5.4033,125.4636,
688,Boueni,YT,78.78,clear sky,-12.9025,45.0761,
689,Riwaka,NZ,59.0,light rain,-41.0833,173.0,
690,Turbat,PK,91.44,clear sky,26.0023,63.044,
691,Inhambane,MZ,71.58,few clouds,-23.865,35.3833,
692,Garowe,SO,84.9,scattered clouds,8.4054,48.4845,
693,Bardiyah,LY,67.64,clear sky,31.7561,25.0865,
694,Mianyang,CN,59.05,scattered clouds,31.4593,104.7542,
695,Akureyri,IS,58.93,broken clouds,65.6835,-18.0878,
696,Hit,IQ,91.26,clear sky,33.6416,42.8251,
697,Kumta,IN,82.8,overcast clouds,14.4167,74.4,
698,Latung,PH,82.4,broken clouds,5.5,120.8833,
700,Santa Cruz,BO,78.85,broken clouds,-17.8,-63.1667,
701,Upata,VE,84.06,overcast clouds,8.0086,-62.3989,
702,Napa,US,82.56,few clouds,38.4832,-122.3344,
703,Deloraine,AU,50.36,broken clouds,-41.5333,146.6667,
704,Caucaia,BR,85.95,few clouds,-3.7361,-38.6531,
705,Kungurtug,RU,47.16,few clouds,50.5994,97.5228,
706,Komsomolskiy,UZ,63.32,broken clouds,40.4272,71.7189,
707,Dhidhdhoo,MV,81.48,overcast clouds,6.8833,73.1,
